{"as_of":"2025-09-08T07:08:23.611242Z","items":[{"address":"1751 Alton Rd","certifying_agency":"Kosher Miami","city":"Miami beach","created_at":"Wed, 01 Jan 2025 12:00:00 GMT","dist_m":null,"google_rating":4.6,"google_review_count":1817,"id":1767,"image_url":"https://res.cloudinary.com/dcpuqbnrm/image/upload/v1754356219/jewgo/restaurants/17_restaurant_and_sushi_bar/image_1.jpg","kosher_category":"Dairy","latitude":25.7929483,"longitude":-80.1409037,"name":"17 restaurant and sushi bar","phone_number":"(305) 672-0565","price_range":"$$","state":"Fl","status":"active","updated_at":"Fri, 22 Aug 2025 03:09:30 GMT","website":"https://17restaurant.com/","zip_code":"33139"},{"address":"9487 Harding Ave","certifying_agency":"Kosher Miami","city":"Surfside","created_at":"Wed, 01 Jan 2025 12:00:00 GMT","dist_m":null,"google_rating":4.5,"google_review_count":1007,"id":1768,"image_url":"https://res.cloudinary.com/dcpuqbnrm/image/upload/v1754354719/jewgo/restaurants/26_sushi_and_wok/image_1.jpg","kosher_category":"Meat","latitude":25.8850074,"longitude":-80.12336379999999,"name":"26 sushi and wok","phone_number":"(305) 570-2626","price_range":"$$$","state":"Fl","status":"active","updated_at":"Fri, 22 Aug 2025 03:09:30 GMT","website":null,"zip_code":"33154"},{"address":"600 N Surf Rd","certifying_agency":"Kosher Miami","city":"Hollywood","created_at":"Wed, 01 Jan 2025 12:00:00 GMT","dist_m":null,"google_rating":4.8,"google_review_count":245,"id":1769,"image_url":"https://res.cloudinary.com/dcpuqbnrm/image/upload/v1754354762/jewgo/restaurants/3_scoops/image_1.jpg","kosher_category":"Dairy","latitude":26.0158374,"longitude":-80.11559609999999,"name":"3 scoops","phone_number":"(754) 227-6453","price_range":"$$","state":"Fl","status":"active","updated_at":"Fri, 22 Aug 2025 03:09:30 GMT","website":"https://www.3scoopsicecream.getsauce.com/?utm_source=GMB&utm_medium=Website%20button&utm_id=3%20Scoops%20Ice%20Cream","zip_code":"33019"},{"address":"451 W 41st Street","certifying_agency":"Kosher Miami","city":"Miami beach","created_at":"Wed, 01 Jan 2025 12:00:00 GMT","dist_m":null,"google_rating":4.5,"google_review_count":834,"id":1770,"image_url":"https://res.cloudinary.com/dcpuqbnrm/image/upload/v1754354769/jewgo/restaurants/41_pizza_bakery/image_1.jpg","kosher_category":"Dairy","latitude":25.8139839,"longitude":-80.1286468,"name":"41 pizza & bakery","phone_number":"(305) 763-8711","price_range":"$$","state":"Fl","status":"active","updated_at":"Fri, 22 Aug 2025 03:09:30 GMT","website":"https://www.41pizzaandbakery.getsauce.com/","zip_code":"33140"},{"address":"613 W","certifying_agency":"ORB","city":"Hallandale beach","created_at":"Sun, 03 Aug 2025 05:47:28 GMT","dist_m":null,"google_rating":5.0,"google_review_count":68,"id":1512,"image_url":"https://res.cloudinary.com/dcpuqbnrm/image/upload/v1754357055/jewgo/restaurants/a_la_carte/image_1.jpg","kosher_category":"Dairy","latitude":25.9848727,"longitude":-80.1548518,"name":"A la carte","phone_number":"(786) 309-7201","price_range":null,"state":"Fl","status":"active","updated_at":"Fri, 22 Aug 2025 03:09:30 GMT","website":"https://alacartemia.com/","zip_code":"33009"},{"address":"3420 W Hallandale Blvd","certifying_agency":"Kosher Miami","city":"Hollywood","created_at":"Wed, 01 Jan 2025 12:00:00 GMT","dist_m":null,"google_rating":5.0,"google_review_count":2,"id":1771,"image_url":"https://res.cloudinary.com/dcpuqbnrm/image/upload/v1754361121/jewgo/restaurants/appetite_foods/image_1.jpg","kosher_category":"Dairy","latitude":25.9844894,"longitude":-80.1771606,"name":"Appetite foods","phone_number":"(305) 989-7111","price_range":null,"state":"Fl","status":"active","updated_at":"Fri, 22 Aug 2025 03:09:30 GMT","website":null,"zip_code":"33023"},{"address":"3322 Griffin Rd","certifying_agency":"ORB","city":"Fort lauderdale","created_at":"Sun, 03 Aug 2025 05:52:25 GMT","dist_m":null,"google_rating":4.5,"google_review_count":121,"id":1550,"image_url":"https://lh3.googleusercontent.com/places/ANXAkqEoUP7tV2J3c_xVrNYJ8YJZMF5LEHzklTfj8UNtqI6Jrn3IDKU1vqdCG329qR1nZFUwC9QEnu6mVqKHqSX8xTyF86JCaLXoASw=s1600-w800","kosher_category":"Meat","latitude":26.0620213,"longitude":-80.18845639999999,"name":"Ariel's bamboo kitchen","phone_number":"(954) 966-9975","price_range":"$$$","state":"Fl","status":"active","updated_at":"Fri, 22 Aug 2025 03:09:30 GMT","website":"http://clover.com/online-ordering/bamboo-kitchen-fort-lauderdale","zip_code":"33312"},{"address":"3330 Griffin Rd","certifying_agency":"ORB","city":"Fort lauderdale","created_at":"Sun, 03 Aug 2025 05:45:27 GMT","dist_m":null,"google_rating":4.8,"google_review_count":484,"id":1473,"image_url":"https://res.cloudinary.com/dcpuqbnrm/image/upload/v1754350035/jewgo/restaurants/ariels_delicious_pizza/image_1.jpg","kosher_category":"Dairy","latitude":26.0619585,"longitude":-80.1887052,"name":"Ariel's delicious pizza","phone_number":"(754) 888-9262","price_range":"$","state":"Fl","status":"active","updated_at":"Fri, 22 Aug 2025 03:09:30 GMT","website":"http://arielsdeliciouspizza.com/","zip_code":"33312"},{"address":"2906 NE 207th Street #101","certifying_agency":"Kosher Miami","city":"Aventura","created_at":"Wed, 01 Jan 2025 12:00:00 GMT","dist_m":null,"google_rating":4.6,"google_review_count":709,"id":1772,"image_url":"https://res.cloudinary.com/dcpuqbnrm/image/upload/v1754354777/jewgo/restaurants/asiatiko/image_1.jpg","kosher_category":"Meat","latitude":25.9672387,"longitude":-80.1433046,"name":"Asiatiko","phone_number":"(786) 786-0626","price_range":null,"state":"Fl","status":"active","updated_at":"Fri, 22 Aug 2025 03:09:30 GMT","website":"https://www.asiatikomiami.com/","zip_code":"33180"},{"address":"992 NE 167th Street","certifying_agency":"Kosher Miami","city":"North miami beach","created_at":"Wed, 01 Jan 2025 12:00:00 GMT","dist_m":null,"google_rating":4.8,"google_review_count":93,"id":1773,"image_url":"https://res.cloudinary.com/dcpuqbnrm/image/upload/v1754354786/jewgo/restaurants/assa/image_1.jpg","kosher_category":"Dairy","latitude":25.9287705,"longitude":-80.1804882,"name":"Assa","phone_number":"(786) 899-1515","price_range":null,"state":"Fl","status":"active","updated_at":"Fri, 22 Aug 2025 03:09:30 GMT","website":"https://assa.getsauce.com/","zip_code":"33162"},{"address":"Address not provided","certifying_agency":"Kosher Miami","city":"Miami beach","created_at":"Wed, 01 Jan 2025 12:00:00 GMT","dist_m":null,"google_rating":4.7,"google_review_count":356,"id":1774,"image_url":"https://res.cloudinary.com/dcpuqbnrm/image/upload/v1754354474/jewgo/restaurants/au_bon_cake/image_1.jpg","kosher_category":"Pareve","latitude":25.778647,"longitude":-80.2962385,"name":"Au bon cake","phone_number":"215-802-2253","price_range":null,"state":"Fl","status":"active","updated_at":"Fri, 22 Aug 2025 03:09:30 GMT","website":"https://www.instagram.com/p/CI9OHSSJjxn/?igshid=1epyea0ro6eb8","zip_code":"33126"},{"address":"249 E. Palmetto Park Rd","certifying_agency":"ORB","city":"Boca raton","created_at":"Sun, 03 Aug 2025 05:52:34 GMT","dist_m":null,"google_rating":4.8,"google_review_count":105,"id":1569,"image_url":"https://res.cloudinary.com/dcpuqbnrm/image/upload/v1754354238/jewgo/restaurants/avis_grill_inc/image_1.jpg","kosher_category":"Meat","latitude":26.3507685,"longitude":-80.0825748,"name":"Avi's grill, inc.","phone_number":"(561) 896-4951","price_range":"$$","state":"Fl","status":"active","updated_at":"Fri, 22 Aug 2025 03:09:30 GMT","website":"https://avisgrill.com/","zip_code":"33432"},{"address":"6620 Custer Street","certifying_agency":"Kosher Miami","city":"Hollywood","created_at":"Wed, 01 Jan 2025 12:00:00 GMT","dist_m":null,"google_rating":4.2,"google_review_count":1732,"id":1775,"image_url":"https://res.cloudinary.com/dcpuqbnrm/image/upload/v1754354660/jewgo/restaurants/ayala_pastries/image_1.jpg","kosher_category":"Pareve","latitude":26.0409889,"longitude":-80.22169629999999,"name":"Ayala pastries","phone_number":"(954) 920-6400","price_range":"$","state":"Fl","status":"active","updated_at":"Fri, 22 Aug 2025 03:09:30 GMT","website":"http://hollywoodchocolada.com/","zip_code":"33024"},{"address":"3585 NE 207th Street - C3","certifying_agency":"Kosher Miami","city":"Aventura","created_at":"Wed, 01 Jan 2025 12:00:00 GMT","dist_m":null,"google_rating":4.9,"google_review_count":438,"id":1776,"image_url":"https://res.cloudinary.com/dcpuqbnrm/image/upload/v1754354808/jewgo/restaurants/azumare/image_1.jpg","kosher_category":"Meat","latitude":25.968856,"longitude":-80.1298819,"name":"Azumare","phone_number":"(786) 998-2898","price_range":null,"state":"Fl","status":"active","updated_at":"Fri, 22 Aug 2025 03:09:30 GMT","website":"https://www.azumaregroup.com/","zip_code":"33180"},{"address":"9543 Harding Ave","certifying_agency":"ORB","city":"Surfside","created_at":"Sun, 03 Aug 2025 05:47:29 GMT","dist_m":null,"google_rating":null,"google_review_count":null,"id":1515,"image_url":"https://res.cloudinary.com/dcpuqbnrm/image/upload/v1754361124/jewgo/restaurants/bagel_boss_surfside/image_1.jpg","kosher_category":"Dairy","latitude":25.8860957,"longitude":-80.1233902,"name":"Bagel boss (surfside)","phone_number":"000-000-0000","price_range":null,"state":"Fl","status":"active","updated_at":"Fri, 22 Aug 2025 03:09:30 GMT","website":null,"zip_code":"33154"},{"address":"18549 W Dixie Hwy","certifying_agency":"ORB","city":"Aventura","created_at":"Sun, 03 Aug 2025 05:47:24 GMT","dist_m":null,"google_rating":null,"google_review_count":null,"id":1505,"image_url":"https://res.cloudinary.com/dcpuqbnrm/image/upload/v1754361127/jewgo/restaurants/bagel_boss_aventura_nmb/image_1.jpg","kosher_category":"Dairy","latitude":25.9471439,"longitude":-80.14789549999999,"name":"Bagel boss aventura (nmb)","phone_number":"000-000-0000","price_range":null,"state":"Fl","status":"active","updated_at":"Fri, 22 Aug 2025 03:09:30 GMT","website":null,"zip_code":"33180"},{"address":"22107 Powerline Rd","certifying_agency":"ORB","city":"Boca raton","created_at":"Sun, 03 Aug 2025 05:45:31 GMT","dist_m":null,"google_rating":null,"google_review_count":null,"id":1482,"image_url":"https://lh3.googleusercontent.com/place-photos/AJnk2cxrv4eJqU3Bu1-gGSs8c5dtXslkf-AT_Q9eFU_DLh9mjUrA9OawKEQTxP14Aag50CRsQSJD3F4NICkuN9tEQe6t8QQ0rSZbxhnCPvG4vMhiT5ClKKiBpCxC0kzudtnDwtak3w4zhloP85SUx4SWeQUA=s1600-w800","kosher_category":"Dairy","latitude":26.348753,"longitude":-80.1544369,"name":"Bagel boss boca raton","phone_number":"754-264-8120","price_range":null,"state":"Fl","status":"active","updated_at":"Fri, 22 Aug 2025 03:09:30 GMT","website":null,"zip_code":"33433"},{"address":"3915 Alton Rd","certifying_agency":"Kosher Miami","city":"Miami beach","created_at":"Wed, 01 Jan 2025 12:00:00 GMT","dist_m":null,"google_rating":4.0,"google_review_count":1150,"id":1777,"image_url":"https://res.cloudinary.com/dcpuqbnrm/image/upload/v1754354816/jewgo/restaurants/bagel_time/image_1.jpg","kosher_category":"Dairy","latitude":25.8125407,"longitude":-80.13553639999999,"name":"Bagel time","phone_number":"(305) 538-0300","price_range":"$$","state":"Fl","status":"active","updated_at":"Fri, 22 Aug 2025 03:09:30 GMT","website":"https://bageltimecafemiami.com/","zip_code":"33140"},{"address":"17871 Biscayne Blvd","certifying_agency":"Kosher Miami","city":"Aventura","created_at":"Wed, 01 Jan 2025 12:00:00 GMT","dist_m":null,"google_rating":4.7,"google_review_count":274,"id":1778,"image_url":"https://res.cloudinary.com/dcpuqbnrm/image/upload/v1754354822/jewgo/restaurants/baguette_nir/image_1.jpg","kosher_category":"Meat","latitude":25.9412347,"longitude":-80.1477211,"name":"Baguette nir","phone_number":"(786) 676-8636","price_range":null,"state":"Fl","status":"active","updated_at":"Fri, 22 Aug 2025 03:09:30 GMT","website":"https://www.baguettenir.com/","zip_code":"17871"},{"address":"5650 Stirling Rd, +9","certifying_agency":"ORB","city":"Hollywood","created_at":"Sun, 03 Aug 2025 05:52:35 GMT","dist_m":null,"google_rating":4.8,"google_review_count":32,"id":1571,"image_url":"https://res.cloudinary.com/dcpuqbnrm/image/upload/v1754354258/jewgo/restaurants/bambu_hollywood_shanghai_18/image_1.jpg","kosher_category":"Meat","latitude":26.0459681,"longitude":-80.20184650000002,"name":"Bambu hollywood - shanghai 18","phone_number":"(954) 505-4729","price_range":null,"state":"Fl","status":"active","updated_at":"Fri, 22 Aug 2025 03:09:30 GMT","website":"https://bambukosher.com/hollywood/","zip_code":"33021"},{"address":"3427 NE 163rd Street","certifying_agency":"Kosher Miami","city":"North miami beach","created_at":"Wed, 01 Jan 2025 12:00:00 GMT","dist_m":null,"google_rating":4.7,"google_review_count":432,"id":1779,"image_url":"https://res.cloudinary.com/dcpuqbnrm/image/upload/v1754355714/jewgo/restaurants/bambu_pan_asian_kitchen/image_1.jpg","kosher_category":"Meat","latitude":25.929049,"longitude":-80.1361569,"name":"Bambu pan asian kitchen","phone_number":"(786) 384-5177","price_range":"$$","state":"Fl","status":"active","updated_at":"Fri, 22 Aug 2025 03:09:30 GMT","website":"https://bambukosher.com/locations","zip_code":"33160"},{"address":"141 NW 20th St","certifying_agency":"ORB","city":"Boca raton","created_at":"Sun, 03 Aug 2025 05:52:26 GMT","dist_m":null,"google_rating":4.5,"google_review_count":130,"id":1551,"image_url":"https://res.cloudinary.com/dcpuqbnrm/image/upload/v1754354023/jewgo/restaurants/bambu_pan_asian_kitchen_boca/image_1.jpg","kosher_category":"Meat","latitude":26.3683864,"longitude":-80.0871137,"name":"Bambu pan asian kitchen (boca)","phone_number":"(561) 961-0559","price_range":null,"state":"Fl","status":"active","updated_at":"Fri, 22 Aug 2025 03:09:30 GMT","website":"https://bambukosher.com/boca/","zip_code":"33431"},{"address":"47 NE 2nd Ave","certifying_agency":"ORB","city":"Miami","created_at":"Sun, 03 Aug 2025 05:52:32 GMT","dist_m":null,"google_rating":4.7,"google_review_count":83,"id":1564,"image_url":"https://res.cloudinary.com/dcpuqbnrm/image/upload/v1754354159/jewgo/restaurants/barakeh_shawarma_grill/image_1.jpg","kosher_category":"Meat","latitude":25.7749942,"longitude":-80.1901167,"name":"Barakeh shawarma & grill","phone_number":"(786) 618-5988","price_range":"$$","state":"Fl","status":"active","updated_at":"Fri, 22 Aug 2025 03:09:30 GMT","website":"https://barakehgrill.com/","zip_code":"33132"},{"address":"47 NE 2nd Ave","certifying_agency":"ORB","city":"Miami","created_at":"Sun, 03 Aug 2025 06:00:58 GMT","dist_m":null,"google_rating":5.0,"google_review_count":2,"id":1582,"image_url":"https://res.cloudinary.com/dcpuqbnrm/image/upload/v1754361133/jewgo/restaurants/barakeh_sushiya/image_1.jpg","kosher_category":"Meat","latitude":25.7749942,"longitude":-80.1901167,"name":"Barakeh sushi-ya","phone_number":"(786) 618-5988","price_range":null,"state":"Fl","status":"active","updated_at":"Fri, 22 Aug 2025 03:09:30 GMT","website":"https://www.google.com/maps/place/?q=place_id:ChIJJViGRQe32YgR6P3eDp06MR4","zip_code":"33132"},{"address":"3455 NE 163rd St, North","certifying_agency":"ORB","city":"Miami","created_at":"Sun, 03 Aug 2025 05:52:36 GMT","dist_m":null,"google_rating":5.0,"google_review_count":43,"id":1574,"image_url":"https://res.cloudinary.com/dcpuqbnrm/image/upload/v1754354281/jewgo/restaurants/ben_yehuda_grill/image_1.jpg","kosher_category":"Meat","latitude":25.9290922,"longitude":-80.1359454,"name":"Ben yehuda grill","phone_number":"(305) 974-5149","price_range":null,"state":"Fl","status":"active","updated_at":"Fri, 22 Aug 2025 03:09:30 GMT","website":null,"zip_code":"33160"},{"address":"501 Silks Run","certifying_agency":"ORB","city":"Hallandale beach","created_at":"Sun, 03 Aug 2025 05:52:32 GMT","dist_m":null,"google_rating":4.3,"google_review_count":498,"id":1565,"image_url":"https://res.cloudinary.com/dcpuqbnrm/image/upload/v1754354208/jewgo/restaurants/bissaleh_alma_grill_bar/image_1.jpg","kosher_category":"Meat","latitude":25.9791056,"longitude":-80.1396745,"name":"Bissaleh alma grill & bar","phone_number":"(305) 433-1016","price_range":"$$$$","state":"Fl","status":"active","updated_at":"Fri, 22 Aug 2025 03:09:30 GMT","website":"https://alma.getsauce.com/?utm_source=GMB&utm_medium=Website+Button&utm_id=alma","zip_code":"33009"},{"address":"12355 Hagen Ranch Rd","certifying_agency":"ORB","city":"Boynton beach","created_at":"Sun, 03 Aug 2025 05:52:22 GMT","dist_m":null,"google_rating":4.5,"google_review_count":230,"id":1543,"image_url":"https://res.cloudinary.com/dcpuqbnrm/image/upload/v1754353963/jewgo/restaurants/bissli_grill/image_1.jpg","kosher_category":"Meat","latitude":26.4927802,"longitude":-80.1655778,"name":"Bissli grill","phone_number":"(561) 944-3984","price_range":"$$","state":"Fl","status":"active","updated_at":"Fri, 22 Aug 2025 03:09:30 GMT","website":"https://www.bissligrill.getsauce.com/?utm_source=GMB&utm_medium=Website+Button&utm_id=bissligrill","zip_code":"33437"},{"address":"754 - 41Street","certifying_agency":"Kosher Miami","city":"Miami beach","created_at":"Wed, 01 Jan 2025 12:00:00 GMT","dist_m":null,"google_rating":null,"google_review_count":null,"id":1780,"image_url":"https://res.cloudinary.com/dcpuqbnrm/image/upload/v1754361136/jewgo/restaurants/bobatbot/image_1.jpg","kosher_category":"Dairy","latitude":25.8136605,"longitude":-80.1319858,"name":"Bobatbot","phone_number":"Phone not provided","price_range":null,"state":"Fl","status":"active","updated_at":"Fri, 22 Aug 2025 03:09:30 GMT","website":null,"zip_code":"33140"},{"address":"8903 Glades Rd, Suite G-9","certifying_agency":"ORB","city":"Boca raton","created_at":"Sun, 03 Aug 2025 05:52:11 GMT","dist_m":null,"google_rating":4.3,"google_review_count":937,"id":1519,"image_url":"https://res.cloudinary.com/dcpuqbnrm/image/upload/v1754350596/jewgo/restaurants/boca_grill/image_1.jpg","kosher_category":"Meat","latitude":26.3693563,"longitude":-80.1853677,"name":"Boca grill","phone_number":"(561) 419-8434","price_range":"$$","state":"Fl","status":"active","updated_at":"Fri, 22 Aug 2025 03:09:30 GMT","website":"https://www.kosherbocagrill.com/","zip_code":"33434"},{"address":"18671 W. Dixie Hwy","certifying_agency":"Kosher Miami","city":"North miami beach","created_at":"Wed, 01 Jan 2025 12:00:00 GMT","dist_m":null,"google_rating":null,"google_review_count":null,"id":1781,"image_url":"https://res.cloudinary.com/dcpuqbnrm/image/upload/v1754361139/jewgo/restaurants/bourekas_etc/image_1.jpg","kosher_category":"Dairy","latitude":25.9776189,"longitude":-80.1484771,"name":"Bourekas, etc.","phone_number":"305-503-3838","price_range":null,"state":"Fl","status":"active","updated_at":"Fri, 22 Aug 2025 03:09:30 GMT","website":null,"zip_code":"18671"},{"address":"3558 N Ocean Blvd","certifying_agency":"ORB","city":"Fort lauderdale","created_at":"Sun, 03 Aug 2025 05:45:32 GMT","dist_m":null,"google_rating":4.7,"google_review_count":274,"id":1483,"image_url":"https://res.cloudinary.com/dcpuqbnrm/image/upload/v1754354459/jewgo/restaurants/boutique_cafe/image_1.jpg","kosher_category":"Dairy","latitude":26.1721782,"longitude":-80.0996627,"name":"Boutique cafe","phone_number":"(954) 280-0050","price_range":"$$","state":"Fl","status":"active","updated_at":"Fri, 22 Aug 2025 03:09:30 GMT","website":"https://boutiquecafefl.com/","zip_code":"33308"},{"address":"1129 NE 163rd Street","certifying_agency":"Kosher Miami","city":"North miami beach","created_at":"Wed, 01 Jan 2025 12:00:00 GMT","dist_m":null,"google_rating":4.6,"google_review_count":436,"id":1782,"image_url":"https://res.cloudinary.com/dcpuqbnrm/image/upload/v1754355722/jewgo/restaurants/bubbys_fish_n_chips/image_1.jpg","kosher_category":"Dairy","latitude":25.9256714,"longitude":-80.1768669,"name":"Bubby's fish n chips","phone_number":"(305) 709-1377","price_range":"$$","state":"Fl","status":"active","updated_at":"Fri, 22 Aug 2025 03:09:30 GMT","website":"http://www.bubbysfishnchips.com/","zip_code":"33162"},{"address":"8177 Glades Rd","certifying_agency":"ORB","city":"Boca raton","created_at":"Sun, 03 Aug 2025 05:52:19 GMT","dist_m":null,"google_rating":4.4,"google_review_count":258,"id":1537,"image_url":"https://res.cloudinary.com/dcpuqbnrm/image/upload/v1754353875/jewgo/restaurants/burnt_smokehouse_and_bar/image_1.jpg","kosher_category":"Meat","latitude":26.369447,"longitude":-80.17251739999999,"name":"Burnt smokehouse and bar","phone_number":"(561) 816-2784","price_range":"$$","state":"Fl","status":"active","updated_at":"Fri, 22 Aug 2025 03:09:30 GMT","website":"http://burntbocafl.com/","zip_code":"33434"},{"address":"21160 95th Ave South","certifying_agency":"ORB","city":"Boca raton","created_at":"Sun, 03 Aug 2025 05:45:24 GMT","dist_m":null,"google_rating":4.6,"google_review_count":11,"id":1467,"image_url":"https://res.cloudinary.com/dcpuqbnrm/image/upload/v1754354752/jewgo/restaurants/cafe_95_at_jarc/image_1.jpg","kosher_category":"Dairy","latitude":26.3683064,"longitude":-80.1289321,"name":"Cafe 95 at jarc","phone_number":"(561) 724-3511","price_range":"$$","state":"Fl","status":"active","updated_at":"Fri, 22 Aug 2025 03:09:30 GMT","website":"http://www.cafe95idaho.com/","zip_code":"33428"},{"address":"3000 Stirling Rd,","certifying_agency":"ORB","city":"Hollywood","created_at":"Sun, 03 Aug 2025 05:45:26 GMT","dist_m":null,"google_rating":4.9,"google_review_count":13027,"id":1471,"image_url":"https://lh3.googleusercontent.com/place-photos/AJnk2cxvTWxgYx17-QQVsmfQew_afo-IUVimngzqqZF2oVn3TTHuABcBmRusbRkw_-3K5HjFito7xFIKMvazMnZ_-TH2f4xog4nleiMdaRCcRMbkHIJKYr-XnWyCYp1UbTSL9QLIK68NKUfJQrVkwg=s1600-w800","kosher_category":"Dairy","latitude":26.0472472,"longitude":-80.16977299999999,"name":"Cafe noir","phone_number":"(954) 584-5171","price_range":"$$","state":"Fl","status":"active","updated_at":"Fri, 22 Aug 2025 03:09:30 GMT","website":"https://cafenoirhollywood.com/","zip_code":"33021"},{"address":"2180 1/2 NE 123rd Street","certifying_agency":"Kosher Miami","city":"North miami beach","created_at":"Wed, 01 Jan 2025 12:00:00 GMT","dist_m":null,"google_rating":null,"google_review_count":null,"id":1783,"image_url":"https://res.cloudinary.com/dcpuqbnrm/image/upload/v1754361141/jewgo/restaurants/cakery_by_miriam/image_1.jpg","kosher_category":"Pareve","latitude":25.8892148,"longitude":-80.1543408,"name":"Cakery by miriam","phone_number":"305-364-5873","price_range":null,"state":"Fl","status":"active","updated_at":"Fri, 22 Aug 2025 03:09:30 GMT","website":null,"zip_code":"33181"},{"address":"21000 W Dixie Hwy","certifying_agency":"ORB","city":"Miami","created_at":"Sun, 03 Aug 2025 05:52:21 GMT","dist_m":null,"google_rating":4.8,"google_review_count":502,"id":1540,"image_url":"https://res.cloudinary.com/dcpuqbnrm/image/upload/v1754353909/jewgo/restaurants/capas_burger/image_1.jpg","kosher_category":"Meat","latitude":25.9696585,"longitude":-80.1482444,"name":"Capas burger","phone_number":"(954) 859-7467","price_range":"$$","state":"Fl","status":"active","updated_at":"Fri, 22 Aug 2025 03:09:30 GMT","website":"https://capasburger.com/","zip_code":"33180"},{"address":"1975 Stirling Rd Suite E","certifying_agency":"Kosher Miami","city":"Hollywood","created_at":"Wed, 01 Jan 2025 12:00:00 GMT","dist_m":null,"google_rating":4.8,"google_review_count":663,"id":1784,"image_url":"https://res.cloudinary.com/dcpuqbnrm/image/upload/v1754356060/jewgo/restaurants/kosh/image_1.jpg","kosher_category":"Dairy","latitude":26.0485365,"longitude":-80.1664934,"name":"Caramel kosher","phone_number":"(754) 217-3182","price_range":"$$","state":"Fl","status":"active","updated_at":"Fri, 22 Aug 2025 03:09:30 GMT","website":"https://www.palamediterraneankitchen.com/","zip_code":"33004"},{"address":"7300 W Camino Real","certifying_agency":"ORB","city":"Boca raton","created_at":"Sun, 03 Aug 2025 05:45:27 GMT","dist_m":null,"google_rating":4.3,"google_review_count":536,"id":1472,"image_url":"https://lh3.googleusercontent.com/places/ANXAkqHv7z1vo6qWOEKrrxQ5DOodmnWd3if5LSH2ktdMRmMz8JECW9qko1M8Pm3SBJxjFDwmm5nl908rAdljjVnZIngLc2f63wsjWTY=s1600-w800","kosher_category":"Dairy","latitude":26.3436491,"longitude":-80.15515959999999,"name":"Carmela's boca","phone_number":"(561) 367-3412","price_range":"$$","state":"Fl","status":"active","updated_at":"Fri, 22 Aug 2025 03:09:30 GMT","website":"http://carmelasboca.com/","zip_code":"33433"},{"address":"7390 SW 117th Ave","certifying_agency":"Kosher Miami","city":"Miami","created_at":"Fri, 08 Aug 2025 20:14:48 GMT","dist_m":null,"google_rating":4.9,"google_review_count":3294,"id":1900,"image_url":"https://lh3.googleusercontent.com/places/ANXAkqGN0pGTfp5uK-w01KpPBDnH3AaJSjZoAYRQsDMfSEDIsK_wHCzQBZ-sGKp4DdhOhJskpEj_-OnT3X1U1FCgPlJ73c7pP-BaLhU=s1600-w800","kosher_category":"Meat","latitude":25.6981723,"longitude":-80.38249549999999,"name":"Carnicery","phone_number":"(305) 603-9692","price_range":null,"state":"Fl","status":"active","updated_at":"Thu, 21 Aug 2025 08:18:50 GMT","website":"https://www.carnicerogroup.com/","zip_code":"33183"},{"address":"9060 Kimberly Blvd","certifying_agency":"ORB","city":"Boca raton","created_at":"Sun, 03 Aug 2025 05:52:12 GMT","dist_m":null,"google_rating":4.6,"google_review_count":339,"id":1523,"image_url":"https://res.cloudinary.com/dcpuqbnrm/image/upload/v1754350625/jewgo/restaurants/century_grill/image_1.jpg","kosher_category":"Meat","latitude":26.3818679,"longitude":-80.1875675,"name":"Century grill","phone_number":"(561) 571-6144","price_range":"$$","state":"Fl","status":"active","updated_at":"Fri, 22 Aug 2025 03:09:30 GMT","website":"https://centurygrillboca.wixsite.com/cgboca","zip_code":"33433"},{"address":"1688 NE 164th Street","certifying_agency":"Kosher Miami","city":"North miami beach","created_at":"Wed, 01 Jan 2025 12:00:00 GMT","dist_m":null,"google_rating":4.1,"google_review_count":58,"id":1785,"image_url":"https://res.cloudinary.com/dcpuqbnrm/image/upload/v1754355730/jewgo/restaurants/chai_berry/image_1.jpg","kosher_category":"Pareve","latitude":25.9265687,"longitude":-80.1664971,"name":"Chai berry","phone_number":"(305) 749-6008","price_range":"$$","state":"Fl","status":"active","updated_at":"Fri, 22 Aug 2025 03:09:30 GMT","website":"https://order.toasttab.com/online/chaiberry","zip_code":"33162"},{"address":"1688 NE 164th Street","certifying_agency":"Kosher Miami","city":"North miami beach","created_at":"Wed, 01 Jan 2025 12:00:00 GMT","dist_m":null,"google_rating":4.1,"google_review_count":469,"id":1786,"image_url":"https://res.cloudinary.com/dcpuqbnrm/image/upload/v1754355738/jewgo/restaurants/chai_wok/image_1.jpg","kosher_category":"Meat","latitude":25.9265687,"longitude":-80.1664971,"name":"Chai wok","phone_number":"(305) 705-2110","price_range":"$$","state":"Fl","status":"active","updated_at":"Fri, 22 Aug 2025 03:09:30 GMT","website":"https://chaiwokmiami.com/","zip_code":"33162"},{"address":"850 W","certifying_agency":"ORB","city":"Hallandale beach","created_at":"Sun, 03 Aug 2025 05:52:35 GMT","dist_m":null,"google_rating":4.7,"google_review_count":139,"id":1572,"image_url":"https://res.cloudinary.com/dcpuqbnrm/image/upload/v1754354265/jewgo/restaurants/chayhana_samarkand/image_1.jpg","kosher_category":"Meat","latitude":25.9854432,"longitude":-80.16049799999999,"name":"Chayhana samarkand","phone_number":"(954) 589-5540","price_range":null,"state":"Fl","status":"active","updated_at":"Fri, 22 Aug 2025 03:09:30 GMT","website":"https://www.google.com/maps/place/?q=place_id:ChIJdbPf0Zit2YgRnCQRazNsQgM","zip_code":"33009"},{"address":"7158 Beracasa Way","certifying_agency":"ORB","city":"Boca raton","created_at":"Sun, 03 Aug 2025 05:52:13 GMT","dist_m":null,"google_rating":4.5,"google_review_count":569,"id":1524,"image_url":"https://res.cloudinary.com/dcpuqbnrm/image/upload/v1754350631/jewgo/restaurants/chill_grill_pita_boca/image_1.jpg","kosher_category":"Meat","latitude":26.3513535,"longitude":-80.1567117,"name":"Chill & grill pita boca","phone_number":"(561) 717-6968","price_range":"$$","state":"Fl","status":"active","updated_at":"Fri, 22 Aug 2025 03:09:30 GMT","website":"http://chillngrillpita.com/","zip_code":"33433"},{"address":"17831 Biscayne Blvd","certifying_agency":"Kosher Miami","city":"Aventura","created_at":"Wed, 01 Jan 2025 12:00:00 GMT","dist_m":null,"google_rating":4.4,"google_review_count":718,"id":1787,"image_url":"https://res.cloudinary.com/dcpuqbnrm/image/upload/v1754355744/jewgo/restaurants/chilln_nitrogen_ice_cream_aventura_location_only/image_1.jpg","kosher_category":"Dairy","latitude":25.941202,"longitude":-80.1477562,"name":"Chill-n nitrogen ice cream aventura location only","phone_number":"(305) 974-2886","price_range":"$","state":"Fl","status":"active","updated_at":"Fri, 22 Aug 2025 03:09:30 GMT","website":"https://www.chilln.com/","zip_code":"17831"},{"address":"3919 Alton Road","certifying_agency":"Kosher Miami","city":"Miami beach","created_at":"Wed, 01 Jan 2025 12:00:00 GMT","dist_m":null,"google_rating":3.5,"google_review_count":222,"id":1788,"image_url":"https://res.cloudinary.com/dcpuqbnrm/image/upload/v1754355752/jewgo/restaurants/china_beach_wok_on_the_beach/image_1.jpg","kosher_category":"Meat","latitude":25.8126205,"longitude":-80.1355097,"name":"China beach - wok on the beach","phone_number":"(305) 534-3034","price_range":"$$","state":"Fl","status":"active","updated_at":"Fri, 22 Aug 2025 03:09:30 GMT","website":"https://wokonthebeachkosher.com/","zip_code":"33140"},{"address":"19501 Biscayne Blvd","certifying_agency":"Kosher Miami","city":"Aventura","created_at":"Wed, 01 Jan 2025 12:00:00 GMT","dist_m":null,"google_rating":4.3,"google_review_count":40,"id":1789,"image_url":"https://res.cloudinary.com/dcpuqbnrm/image/upload/v1754355762/jewgo/restaurants/cielito_artisan_pops/image_1.jpg","kosher_category":"Dairy","latitude":25.9567864,"longitude":-80.141059,"name":"Cielito artisan pops","phone_number":"(305) 676-2665","price_range":null,"state":"Fl","status":"active","updated_at":"Fri, 22 Aug 2025 03:09:30 GMT","website":"http://cielitoartisanpops.com/","zip_code":"19501"},{"address":"9544 Harding Ave","certifying_agency":"Kosher Miami","city":"Surfside","created_at":"Wed, 01 Jan 2025 12:00:00 GMT","dist_m":null,"google_rating":3.8,"google_review_count":512,"id":1790,"image_url":"https://res.cloudinary.com/dcpuqbnrm/image/upload/v1754355774/jewgo/restaurants/cine_citta_cafe/image_1.jpg","kosher_category":"Dairy","latitude":25.8861421,"longitude":-80.12386359999999,"name":"Cine citta cafe","phone_number":"(305) 866-8688","price_range":"$$","state":"Fl","status":"active","updated_at":"Fri, 22 Aug 2025 03:09:30 GMT","website":"http://www.cinecittamiami.com/","zip_code":"33154"},{"address":"9540 W Bay Harbor Dr","certifying_agency":"Kosher Miami","city":"Surfside","created_at":"Wed, 01 Jan 2025 12:00:00 GMT","dist_m":null,"google_rating":4.6,"google_review_count":256,"id":1791,"image_url":"https://res.cloudinary.com/dcpuqbnrm/image/upload/v1754361144/jewgo/restaurants/cuisine_art_the_altair/image_1.jpg","kosher_category":"Dairy","latitude":25.8862498,"longitude":-80.1335683,"name":"Cuisine art @ the altair","phone_number":"(305) 990-2228","price_range":null,"state":"Fl","status":"active","updated_at":"Fri, 22 Aug 2025 03:09:30 GMT","website":"https://www.ovoatthealtair.com/","zip_code":"33154"},{"address":"1150 NE 185th Street","certifying_agency":"Kosher Miami","city":"North miami beach","created_at":"Wed, 01 Jan 2025 12:00:00 GMT","dist_m":null,"google_rating":4.6,"google_review_count":598,"id":1792,"image_url":"https://res.cloudinary.com/dcpuqbnrm/image/upload/v1754361147/jewgo/restaurants/cupcakes/image_1.jpg","kosher_category":"Pareve","latitude":25.9451661,"longitude":-80.1781022,"name":"Cupcakes","phone_number":"(305) 948-9979","price_range":"$$","state":"Fl","status":"active","updated_at":"Fri, 22 Aug 2025 03:09:30 GMT","website":"http://laparisiennebakery.com/","zip_code":"33162"},{"address":"1629 S 21st Ave","certifying_agency":"Kosher Miami","city":"Hollywood","created_at":"Wed, 01 Jan 2025 12:00:00 GMT","dist_m":null,"google_rating":4.2,"google_review_count":1732,"id":1793,"image_url":"https://res.cloudinary.com/dcpuqbnrm/image/upload/v1754357943/jewgo/restaurants/cupid_cheesecake/image_1.jpg","kosher_category":"Dairy","latitude":25.9973798,"longitude":-80.14832229999999,"name":"Cupid cheesecake","phone_number":"(954) 920-6400","price_range":"$","state":"Fl","status":"active","updated_at":"Fri, 22 Aug 2025 03:09:30 GMT","website":"http://hollywoodchocolada.com/","zip_code":"33020"},{"address":"3371 Sheridan St","certifying_agency":"ORB","city":"Hollywood","created_at":"Sun, 03 Aug 2025 05:52:23 GMT","dist_m":null,"google_rating":4.7,"google_review_count":284,"id":1546,"image_url":"https://res.cloudinary.com/dcpuqbnrm/image/upload/v1754353989/jewgo/restaurants/dabush/image_1.jpg","kosher_category":"Meat","latitude":26.03366,"longitude":-80.17722189999999,"name":"Dabush","phone_number":"(954) 738-3162","price_range":null,"state":"Fl","status":"active","updated_at":"Fri, 22 Aug 2025 03:09:30 GMT","website":"http://dabushshawarma.com/","zip_code":"33021"},{"address":"7350 NE 2nd Ave #102","certifying_agency":"Kosher Miami","city":"Aventura","created_at":"Wed, 01 Jan 2025 12:00:00 GMT","dist_m":null,"google_rating":4.4,"google_review_count":545,"id":1794,"image_url":"https://res.cloudinary.com/dcpuqbnrm/image/upload/v1754361150/jewgo/restaurants/dan_the_baking_man/image_1.jpg","kosher_category":"Pareve","latitude":25.9859555,"longitude":-80.1468105,"name":"Dan the baking man","phone_number":"(305) 936-1440","price_range":"$$","state":"Fl","status":"active","updated_at":"Fri, 22 Aug 2025 03:09:30 GMT","website":"https://www.lerendezvousaventura.com/","zip_code":"33009"},{"address":"4101 Pinetree Drive","certifying_agency":"Kosher Miami","city":"Miami beach","created_at":"Wed, 01 Jan 2025 12:00:00 GMT","dist_m":null,"google_rating":4.3,"google_review_count":14,"id":1795,"image_url":"https://res.cloudinary.com/dcpuqbnrm/image/upload/v1754354700/jewgo/restaurants/danzinger_kosher_catering/image_1.jpg","kosher_category":"Pareve","latitude":25.8275424,"longitude":-80.1210024,"name":"Danzinger kosher catering","phone_number":"(847) 982-1818","price_range":null,"state":"Fl","status":"active","updated_at":"Fri, 22 Aug 2025 03:09:30 GMT","website":"http://www.danzigerkosher.com/","zip_code":"33140"},{"address":"Address not provided","certifying_agency":"Kosher Miami","city":"Aventura","created_at":"Wed, 01 Jan 2025 12:00:00 GMT","dist_m":null,"google_rating":4.3,"google_review_count":1696,"id":1796,"image_url":"https://res.cloudinary.com/dcpuqbnrm/image/upload/v1754361153/jewgo/restaurants/desserts_by_carol_franco/image_1.jpg","kosher_category":"Pareve","latitude":25.9564812,"longitude":-80.1392121,"name":"Desserts by carol franco","phone_number":"(786) 320-5191","price_range":"$$","state":"Fl","status":"active","updated_at":"Fri, 22 Aug 2025 03:09:30 GMT","website":"https://www.rosettabakery.com/","zip_code":"00000"},{"address":"Address not provided","certifying_agency":"Kosher Miami","city":"North miami beach","created_at":"Wed, 01 Jan 2025 12:00:00 GMT","dist_m":null,"google_rating":4.8,"google_review_count":362,"id":1797,"image_url":"https://res.cloudinary.com/dcpuqbnrm/image/upload/v1754354710/jewgo/restaurants/dipsanity/image_1.jpg","kosher_category":"Pareve","latitude":25.9331488,"longitude":-80.1625463,"name":"Dipsanity","phone_number":"984 120 4661","price_range":null,"state":"Fl","status":"active","updated_at":"Fri, 22 Aug 2025 03:09:30 GMT","website":"https://www.afloratulum.com/panza","zip_code":"00000"},{"address":"21077 Powerline Rd","certifying_agency":"ORB","city":"Boca raton","created_at":"Sun, 03 Aug 2025 05:52:13 GMT","dist_m":null,"google_rating":4.3,"google_review_count":340,"id":1525,"image_url":"https://res.cloudinary.com/dcpuqbnrm/image/upload/v1754350639/jewgo/restaurants/ditmas_kitchen_and_cocktail/image_1.jpg","kosher_category":"Meat","latitude":26.3613731,"longitude":-80.152822,"name":"Ditmas kitchen and cocktail","phone_number":"(561) 826-8875","price_range":"$$","state":"Fl","status":"active","updated_at":"Fri, 22 Aug 2025 03:09:30 GMT","website":"https://www.ditmasboca.com/","zip_code":"33433"},{"address":"18798 West Dixie Highway","certifying_agency":"Kosher Miami","city":"Aventura","created_at":"Wed, 01 Jan 2025 12:00:00 GMT","dist_m":null,"google_rating":4.3,"google_review_count":750,"id":1798,"image_url":"https://res.cloudinary.com/dcpuqbnrm/image/upload/v1754355784/jewgo/restaurants/dixie_bbq/image_1.jpg","kosher_category":"Meat","latitude":25.9491016,"longitude":-80.1491166,"name":"Dixie bbq","phone_number":"(305) 760-2620","price_range":"$","state":"Fl","status":"active","updated_at":"Fri, 22 Aug 2025 03:09:30 GMT","website":"https://dixieeats.com/","zip_code":"18798"},{"address":"2790 Stirling Rd","certifying_agency":"Kosher Miami","city":"Hollywood","created_at":"Wed, 01 Jan 2025 12:00:00 GMT","dist_m":null,"google_rating":4.4,"google_review_count":409,"id":1799,"image_url":"https://res.cloudinary.com/dcpuqbnrm/image/upload/v1754355795/jewgo/restaurants/dixie_bbq_1/image_1.jpg","kosher_category":"Meat","latitude":26.0475231,"longitude":-80.16159789999999,"name":"Dixie bbq 1","phone_number":"(954) 367-5607","price_range":"$$","state":"Fl","status":"active","updated_at":"Fri, 22 Aug 2025 03:09:30 GMT","website":"https://dixieeats.com/","zip_code":"33020"},{"address":"274 NE 59th Street","certifying_agency":"Kosher Miami","city":"Miami","created_at":"Wed, 01 Jan 2025 12:00:00 GMT","dist_m":null,"google_rating":null,"google_review_count":null,"id":1800,"image_url":"https://res.cloudinary.com/dcpuqbnrm/image/upload/v1754361156/jewgo/restaurants/dolci_peccati_gelato/image_1.jpg","kosher_category":"Dairy","latitude":25.8295937,"longitude":-80.1904332,"name":"Dolci peccati gelato","phone_number":"954-632-8551","price_range":null,"state":"Fl","status":"active","updated_at":"Fri, 22 Aug 2025 03:09:30 GMT","website":null,"zip_code":"33137"},{"address":"250 N Dixie Highway #107","certifying_agency":"Kosher Miami","city":"Hollywood","created_at":"Wed, 01 Jan 2025 12:00:00 GMT","dist_m":null,"google_rating":4.9,"google_review_count":63,"id":1801,"image_url":"https://lh3.googleusercontent.com/place-photos/AJnk2cyp8foR7U0j-Esezm6DK0rAKJfmkPJRon1L94m9PDjnaxkvhzmqzQP-akL8YGefHvXeW8Xxe02NY3XuIJ_-WZP4HXcmN3F3q3fnGZJiYfYnJWcA_2NYw08WgWjGf7cF9Y5zD1Les1tIR54=s1600-w800","kosher_category":"Pareve","latitude":26.0134012,"longitude":-80.14991409999999,"name":"Dulceria events","phone_number":"305-606-6821","price_range":null,"state":"Fl","status":"active","updated_at":"Fri, 22 Aug 2025 03:09:30 GMT","website":"https://midulceavila.square.site/","zip_code":"33020"},{"address":"18900 NE 25th Ave","certifying_agency":"Kosher Miami","city":"North miami beach","created_at":"Wed, 01 Jan 2025 12:00:00 GMT","dist_m":null,"google_rating":4.0,"google_review_count":24,"id":1802,"image_url":"https://res.cloudinary.com/dcpuqbnrm/image/upload/v1754355804/jewgo/restaurants/elsies_cafe/image_1.jpg","kosher_category":"Dairy","latitude":25.9499633,"longitude":-80.1522526,"name":"Elsie's cafe","phone_number":"(305) 663-9883","price_range":null,"state":"Fl","status":"active","updated_at":"Fri, 22 Aug 2025 03:09:30 GMT","website":"http://jcafegroup.com/","zip_code":"18900"},{"address":"2530 NE Miami Gardens Dr","certifying_agency":"Kosher Miami","city":"North miami beach","created_at":"Wed, 01 Jan 2025 12:00:00 GMT","dist_m":null,"google_rating":4.7,"google_review_count":258,"id":1803,"image_url":"https://res.cloudinary.com/dcpuqbnrm/image/upload/v1754357950/jewgo/restaurants/feed_me/image_1.jpg","kosher_category":"Meat","latitude":25.947065,"longitude":-80.15058839999999,"name":"Feed me","phone_number":"(305) 749-6455","price_range":"$$","state":"Fl","status":"active","updated_at":"Fri, 22 Aug 2025 03:09:30 GMT","website":"https://feedmekosher.com/","zip_code":"33180"},{"address":"9463 Harding Ave","certifying_agency":"Kosher Miami","city":"Surfside","created_at":"Wed, 01 Jan 2025 12:00:00 GMT","dist_m":null,"google_rating":3.9,"google_review_count":110,"id":1804,"image_url":"https://res.cloudinary.com/dcpuqbnrm/image/upload/v1754355882/jewgo/restaurants/fialkoffs_express_surfside/image_1.jpg","kosher_category":"Dairy","latitude":25.8845936,"longitude":-80.1233408,"name":"Fialkoffs express surfside","phone_number":"(305) 397-8324","price_range":"$$","state":"Fl","status":"active","updated_at":"Fri, 22 Aug 2025 03:09:30 GMT","website":"https://fialkoffskosherpizza.com/","zip_code":"33154"},{"address":"544 Arthur Godfrey Rd","certifying_agency":"Kosher Miami","city":"Miami beach","created_at":"Wed, 01 Jan 2025 12:00:00 GMT","dist_m":null,"google_rating":4.3,"google_review_count":695,"id":1805,"image_url":"https://res.cloudinary.com/dcpuqbnrm/image/upload/v1754356060/jewgo/restaurants/kosh/image_1.jpg","kosher_category":"Dairy","latitude":25.813639,"longitude":-80.130269,"name":"Fialkoffs kosher pizza - miami beach","phone_number":"(305) 397-8395","price_range":"$","state":"Fl","status":"active","updated_at":"Fri, 22 Aug 2025 03:09:30 GMT","website":"https://fialkoffskosherpizza.com/","zip_code":"33140"},{"address":"19010 NE 29th Ave","certifying_agency":"Kosher Miami","city":"Aventura","created_at":"Wed, 01 Jan 2025 12:00:00 GMT","dist_m":null,"google_rating":4.6,"google_review_count":500,"id":1806,"image_url":"https://res.cloudinary.com/dcpuqbnrm/image/upload/v1754355889/jewgo/restaurants/flame_mediterrean/image_1.jpg","kosher_category":"Meat","latitude":25.9515315,"longitude":-80.14329540000001,"name":"Flame mediterrean","phone_number":"(305) 931-8883","price_range":"$$","state":"Fl","status":"active","updated_at":"Fri, 22 Aug 2025 03:09:30 GMT","website":"https://flamemediterranean.com/","zip_code":"19010"},{"address":"Address not provided","certifying_agency":"Kosher Miami","city":"North miami beach","created_at":"Wed, 01 Jan 2025 12:00:00 GMT","dist_m":null,"google_rating":4.8,"google_review_count":103,"id":1807,"image_url":"https://res.cloudinary.com/dcpuqbnrm/image/upload/v1754355813/jewgo/restaurants/flavors_catering/image_1.jpg","kosher_category":"Pareve","latitude":25.9331488,"longitude":-80.1625463,"name":"Flavors catering","phone_number":"(786) 287-6283","price_range":"$$","state":"Fl","status":"active","updated_at":"Fri, 22 Aug 2025 03:09:30 GMT","website":"https://chefsdelights.com/","zip_code":"00000"},{"address":"726-41st Street","certifying_agency":"Kosher Miami","city":"Miami beach","created_at":"Wed, 01 Jan 2025 12:00:00 GMT","dist_m":null,"google_rating":null,"google_review_count":null,"id":1808,"image_url":"https://res.cloudinary.com/dcpuqbnrm/image/upload/v1754361162/jewgo/restaurants/fleisch_41/image_1.jpg","kosher_category":"Meat","latitude":25.8137069,"longitude":-80.13113919999999,"name":"Fleisch 41","phone_number":"305-397-8985","price_range":null,"state":"Fl","status":"active","updated_at":"Fri, 22 Aug 2025 03:09:30 GMT","website":null,"zip_code":"33140"},{"address":"2520 NE Miami Gardens Dr","certifying_agency":"Kosher Miami","city":"North miami beach","created_at":"Wed, 01 Jan 2025 12:00:00 GMT","dist_m":null,"google_rating":4.6,"google_review_count":739,"id":1809,"image_url":"https://res.cloudinary.com/dcpuqbnrm/image/upload/v1754355897/jewgo/restaurants/foozo/image_1.jpg","kosher_category":"Dairy","latitude":25.9470644,"longitude":-80.1506584,"name":"Foozo","phone_number":"(786) 916-2812","price_range":"$","state":"Fl","status":"active","updated_at":"Fri, 22 Aug 2025 03:09:30 GMT","website":"http://eatfoozo.getsauce.com/","zip_code":"33180"},{"address":"4101 Pinetree Dr.","certifying_agency":"Kosher Miami","city":"Miami beach","created_at":"Wed, 01 Jan 2025 12:00:00 GMT","dist_m":null,"google_rating":3.9,"google_review_count":33,"id":1810,"image_url":"https://res.cloudinary.com/dcpuqbnrm/image/upload/v1754361165/jewgo/restaurants/forty_one/image_1.jpg","kosher_category":"Dairy","latitude":25.814504,"longitude":-80.1255858,"name":"Forty one","phone_number":"(305) 230-4200","price_range":"$$","state":"Fl","status":"active","updated_at":"Fri, 22 Aug 2025 03:09:30 GMT","website":"http://www.41miami.com/","zip_code":"33140"},{"address":"19048 NE 29th Ave","certifying_agency":"Kosher Miami","city":"Aventura","created_at":"Wed, 01 Jan 2025 12:00:00 GMT","dist_m":null,"google_rating":4.3,"google_review_count":660,"id":1811,"image_url":"https://res.cloudinary.com/dcpuqbnrm/image/upload/v1754355904/jewgo/restaurants/fresko/image_1.jpg","kosher_category":"Dairy","latitude":25.9516522,"longitude":-80.14335419999999,"name":"Fresko","phone_number":"(786) 272-3737","price_range":"$$","state":"Fl","status":"active","updated_at":"Fri, 22 Aug 2025 03:09:30 GMT","website":"https://www.freskomiami.com/","zip_code":"19048"},{"address":"1304 E Las Olas Blvd","certifying_agency":"ORB","city":"Fort lauderdale","created_at":"Sun, 03 Aug 2025 05:52:17 GMT","dist_m":null,"google_rating":4.6,"google_review_count":259,"id":1532,"image_url":"https://res.cloudinary.com/dcpuqbnrm/image/upload/v1754353041/jewgo/restaurants/friendship_cafe_catering/image_1.jpg","kosher_category":"Meat","latitude":26.1190689,"longitude":-80.1296249,"name":"Friendship cafe & catering","phone_number":"(954) 999-9676","price_range":"$","state":"Fl","status":"active","updated_at":"Fri, 22 Aug 2025 03:09:30 GMT","website":"https://thefriendshipgrill.com/","zip_code":"33301"},{"address":"3861 NE 163rd Street","certifying_agency":"Kosher Miami","city":"North miami beach","created_at":"Wed, 01 Jan 2025 12:00:00 GMT","dist_m":null,"google_rating":4.6,"google_review_count":2116,"id":1812,"image_url":"https://res.cloudinary.com/dcpuqbnrm/image/upload/v1754355912/jewgo/restaurants/fuego/image_1.jpg","kosher_category":"Meat","latitude":25.9314762,"longitude":-80.132497,"name":"Fuego","phone_number":"(786) 520-4082","price_range":"$$$","state":"Fl","status":"active","updated_at":"Fri, 22 Aug 2025 03:09:30 GMT","website":"https://fuegobymana.com/","zip_code":"33160"},{"address":"5530 S State Rd 7","certifying_agency":"ORB","city":"Fort lauderdale","created_at":"Sun, 03 Aug 2025 05:52:24 GMT","dist_m":null,"google_rating":4.3,"google_review_count":656,"id":1548,"image_url":"https://res.cloudinary.com/dcpuqbnrm/image/upload/v1754354005/jewgo/restaurants/g7_hospitality/image_1.jpg","kosher_category":"Meat","latitude":26.052419,"longitude":-80.2068257,"name":"G7 hospitality","phone_number":"(754) 714-4718","price_range":null,"state":"Fl","status":"active","updated_at":"Fri, 22 Aug 2025 03:09:30 GMT","website":"https://g7rooftop.com/","zip_code":"33314"},{"address":"19206 W Dixie Hwy","certifying_agency":"Kosher Miami","city":"Aventura","created_at":"Wed, 01 Jan 2025 12:00:00 GMT","dist_m":null,"google_rating":null,"google_review_count":null,"id":1813,"image_url":"https://res.cloudinary.com/dcpuqbnrm/image/upload/v1754361168/jewgo/restaurants/gallery_of_cakes/image_1.jpg","kosher_category":"Pareve","latitude":25.9532605,"longitude":-80.1492601,"name":"Gallery of cakes","phone_number":"305-935-1114","price_range":null,"state":"Fl","status":"active","updated_at":"Fri, 22 Aug 2025 03:09:30 GMT","website":null,"zip_code":"19206"},{"address":"9523 Harding Ave","certifying_agency":"ORB","city":"Surfside","created_at":"Sun, 03 Aug 2025 05:47:23 GMT","dist_m":null,"google_rating":null,"google_review_count":null,"id":1503,"image_url":"https://res.cloudinary.com/dcpuqbnrm/image/upload/v1754362002/jewgo/restaurants/gifted_crust_pizza/image_1.jpg","kosher_category":"Dairy","latitude":25.8857947,"longitude":-80.1234228,"name":"Gifted crust pizza","phone_number":"000-000-0000","price_range":null,"state":"Fl","status":"active","updated_at":"Fri, 22 Aug 2025 03:09:30 GMT","website":null,"zip_code":"33154"},{"address":"4747 Collins Ave","certifying_agency":"ORB","city":"Miami","created_at":"Sun, 03 Aug 2025 05:52:27 GMT","dist_m":null,"google_rating":4.9,"google_review_count":213,"id":1554,"image_url":"https://res.cloudinary.com/dcpuqbnrm/image/upload/v1754354081/jewgo/restaurants/glatt_miami/image_1.jpg","kosher_category":"Meat","latitude":25.821883,"longitude":-80.12171219999999,"name":"Glatt miami","phone_number":"(305) 939-5264","price_range":null,"state":"Fl","status":"active","updated_at":"Fri, 22 Aug 2025 03:09:30 GMT","website":"https://www.silanmiami.com/","zip_code":"33140"},{"address":"5225 Collins Avenue","certifying_agency":"Kosher Miami","city":"Miami beach","created_at":"Wed, 01 Jan 2025 12:00:00 GMT","dist_m":null,"google_rating":null,"google_review_count":null,"id":1814,"image_url":"https://res.cloudinary.com/dcpuqbnrm/image/upload/v1754361174/jewgo/restaurants/gourmet_event_magician_chefalexander_hotel/image_1.jpg","kosher_category":"Dairy","latitude":25.8298972,"longitude":-80.1212187,"name":"Gourmet event / magician chef@alexander hotel","phone_number":"954-548-6981","price_range":null,"state":"Fl","status":"active","updated_at":"Fri, 22 Aug 2025 03:09:30 GMT","website":null,"zip_code":"33140"},{"address":"1215 NE 171 Terrace","certifying_agency":"Kosher Miami","city":"North miami beach","created_at":"Wed, 01 Jan 2025 12:00:00 GMT","dist_m":null,"google_rating":5.0,"google_review_count":43,"id":1815,"image_url":"https://res.cloudinary.com/dcpuqbnrm/image/upload/v1754361177/jewgo/restaurants/gourmet_heimish/image_1.jpg","kosher_category":"Meat","latitude":25.9334211,"longitude":-80.1759325,"name":"Gourmet heimish","phone_number":"(305) 974-5149","price_range":null,"state":"Fl","status":"active","updated_at":"Fri, 22 Aug 2025 03:09:30 GMT","website":null,"zip_code":"33162"},{"address":"2491 NE 186th St","certifying_agency":"ORB","city":"Miami","created_at":"Sun, 03 Aug 2025 05:47:22 GMT","dist_m":null,"google_rating":4.7,"google_review_count":1139,"id":1500,"image_url":"https://res.cloudinary.com/dcpuqbnrm/image/upload/v1754350168/jewgo/restaurants/grand_cafe_aventura/image_1.jpg","kosher_category":"Dairy","latitude":25.9475984,"longitude":-80.1502993,"name":"Grand cafe aventura","phone_number":"(305) 627-3495","price_range":"$$","state":"Fl","status":"active","updated_at":"Fri, 22 Aug 2025 03:09:30 GMT","website":"http://www.grandcafe.us/","zip_code":"33180"},{"address":"2905 Stirling Rd","certifying_agency":"ORB","city":"Fort lauderdale","created_at":"Sun, 03 Aug 2025 05:45:23 GMT","dist_m":null,"google_rating":4.2,"google_review_count":1308,"id":1464,"image_url":"https://res.cloudinary.com/dcpuqbnrm/image/upload/v1754354387/jewgo/restaurants/grand_cafe_hollywood/image_1.jpg","kosher_category":"Dairy","latitude":26.0480526,"longitude":-80.1809225,"name":"Grand cafe hollywood","phone_number":"(954) 986-6860","price_range":"$$","state":"Fl","status":"active","updated_at":"Fri, 22 Aug 2025 03:09:30 GMT","website":"https://grandcafe.us/","zip_code":"33312"},{"address":"265 NE Spanish River Blvd","certifying_agency":"ORB","city":"Boca raton","created_at":"Sun, 03 Aug 2025 06:00:57 GMT","dist_m":null,"google_rating":5.0,"google_review_count":87,"id":1581,"image_url":"https://res.cloudinary.com/dcpuqbnrm/image/upload/v1754354356/jewgo/restaurants/grill_place/image_1.jpg","kosher_category":"Meat","latitude":26.3867366,"longitude":-80.0807502,"name":"Grill place","phone_number":"(561) 334-2935","price_range":"$$","state":"Fl","status":"active","updated_at":"Fri, 22 Aug 2025 03:09:30 GMT","website":"https://grillplace.getsauce.com/","zip_code":"33431"},{"address":"10143 W Oakland Park","certifying_agency":"ORB","city":"Sunrise","created_at":"Sun, 03 Aug 2025 05:52:18 GMT","dist_m":null,"google_rating":4.5,"google_review_count":182,"id":1534,"image_url":"https://res.cloudinary.com/dcpuqbnrm/image/upload/v1754353066/jewgo/restaurants/grill_xpress/image_1.jpg","kosher_category":"Meat","latitude":26.1714533,"longitude":-80.2863071,"name":"Grill xpress","phone_number":"(954) 982-2158","price_range":"$$","state":"Fl","status":"active","updated_at":"Fri, 22 Aug 2025 03:09:30 GMT","website":"https://grillxpress.us/","zip_code":"33351"},{"address":"2500 NE 186St","certifying_agency":"Kosher Miami","city":"North miami beach","created_at":"Wed, 01 Jan 2025 12:00:00 GMT","dist_m":null,"google_rating":4.9,"google_review_count":2326,"id":1816,"image_url":"https://res.cloudinary.com/dcpuqbnrm/image/upload/v1754357960/jewgo/restaurants/hadekel/image_1.jpg","kosher_category":"Dairy","latitude":25.9471377,"longitude":-80.15073509999999,"name":"Hadekel","phone_number":"(561) 583-0238","price_range":"$$","state":"Fl","status":"active","updated_at":"Fri, 22 Aug 2025 03:09:30 GMT","website":"https://www.hadekel1.com/","zip_code":"33180"},{"address":"9415 Harding Avenue","certifying_agency":"Kosher Miami","city":"Surfside","created_at":"Wed, 01 Jan 2025 12:00:00 GMT","dist_m":null,"google_rating":4.6,"google_review_count":1614,"id":1817,"image_url":"https://res.cloudinary.com/dcpuqbnrm/image/upload/v1754355919/jewgo/restaurants/harbour_grill/image_1.jpg","kosher_category":"Meat","latitude":25.883852,"longitude":-80.12318499999999,"name":"Harbour grill","phone_number":"(305) 861-0787","price_range":"$$$$","state":"Fl","status":"active","updated_at":"Fri, 22 Aug 2025 03:09:30 GMT","website":"https://www.theharbourgrill.com/","zip_code":"33154"},{"address":"9472 Harding Ave","certifying_agency":"Kosher Miami","city":"Surfside","created_at":"Wed, 01 Jan 2025 12:00:00 GMT","dist_m":null,"google_rating":4.9,"google_review_count":74,"id":1818,"image_url":"https://res.cloudinary.com/dcpuqbnrm/image/upload/v1754355927/jewgo/restaurants/hikari/image_1.jpg","kosher_category":"Meat","latitude":25.8847545,"longitude":-80.1237312,"name":"Hikari","phone_number":"(786) 361-5020","price_range":null,"state":"Fl","status":"active","updated_at":"Fri, 22 Aug 2025 03:09:30 GMT","website":"https://hikarimiami.com/","zip_code":"33154"},{"address":"6100","certifying_agency":"ORB","city":"Hollywood","created_at":"Sun, 03 Aug 2025 05:45:25 GMT","dist_m":null,"google_rating":4.7,"google_review_count":13,"id":1468,"image_url":"https://res.cloudinary.com/dcpuqbnrm/image/upload/v1754354465/jewgo/restaurants/hollywood_deli/image_1.jpg","kosher_category":"Dairy","latitude":26.0092919,"longitude":-80.2100975,"name":"Hollywood deli","phone_number":"(954) 986-7570","price_range":null,"state":"Fl","status":"active","updated_at":"Fri, 22 Aug 2025 03:09:30 GMT","website":"https://www.clover.com/online-ordering/hollywood-deli-inc-hollywood","zip_code":"33024"},{"address":"3944 N 46th Ave","certifying_agency":"ORB","city":"Hollywood","created_at":"Sun, 03 Aug 2025 05:47:27 GMT","dist_m":null,"google_rating":4.3,"google_review_count":225,"id":1510,"image_url":"https://res.cloudinary.com/dcpuqbnrm/image/upload/v1754354433/jewgo/restaurants/hollywood_saras_pizza/image_1.jpg","kosher_category":"Dairy","latitude":26.0460333,"longitude":-80.1914278,"name":"Hollywood sara's pizza","phone_number":"(954) 986-1770","price_range":"$","state":"Fl","status":"active","updated_at":"Fri, 22 Aug 2025 03:09:30 GMT","website":"https://www.hollywoodsaras.com/","zip_code":"33021"},{"address":"19202 West Dixie Hwy","certifying_agency":"Kosher Miami","city":"Aventura","created_at":"Wed, 01 Jan 2025 12:00:00 GMT","dist_m":null,"google_rating":4.8,"google_review_count":105,"id":1819,"image_url":"https://res.cloudinary.com/dcpuqbnrm/image/upload/v1754356030/jewgo/restaurants/holy_bites/image_1.jpg","kosher_category":"Meat","latitude":25.9532053,"longitude":-80.1492916,"name":"Holy bites","phone_number":"(305) 200-5555","price_range":"$$","state":"Fl","status":"active","updated_at":"Fri, 22 Aug 2025 03:09:30 GMT","website":null,"zip_code":"19202"},{"address":"93 NW 1st Street","certifying_agency":"Kosher Miami","city":"Miami","created_at":"Wed, 01 Jan 2025 12:00:00 GMT","dist_m":null,"google_rating":4.9,"google_review_count":84,"id":1820,"image_url":"https://res.cloudinary.com/dcpuqbnrm/image/upload/v1754356038/jewgo/restaurants/holy_grill_and_deli/image_1.jpg","kosher_category":"Meat","latitude":25.7752281,"longitude":-80.19490549999999,"name":"Holy grill and deli","phone_number":"(305) 961-7878","price_range":null,"state":"Fl","status":"active","updated_at":"Fri, 22 Aug 2025 03:09:30 GMT","website":"http://holygrillanddeli.com/","zip_code":"33128"},{"address":"3925 Lockwood Blvd","certifying_agency":"ORB","city":"Oviedo","created_at":"Sun, 03 Aug 2025 05:52:16 GMT","dist_m":null,"google_rating":4.7,"google_review_count":81,"id":1531,"image_url":"https://res.cloudinary.com/dcpuqbnrm/image/upload/v1754353030/jewgo/restaurants/holy_smokes_bbq_and_grill_food_truck/image_1.jpg","kosher_category":"Meat","latitude":28.6136186,"longitude":-81.1908543,"name":"Holy smokes bbq and grill (food truck)","phone_number":"984 131 8924","price_range":null,"state":"Fl","status":"active","updated_at":"Fri, 22 Aug 2025 03:09:30 GMT","website":"https://www.google.com/maps/place/?q=place_id:ChIJ6W3Dky2Xb4YRSOn7y_3uSo8","zip_code":"32765"},{"address":"1880 NE 183rd Street","certifying_agency":"Kosher Miami","city":"North miami beach","created_at":"Wed, 01 Jan 2025 12:00:00 GMT","dist_m":null,"google_rating":4.9,"google_review_count":1239,"id":1821,"image_url":"https://res.cloudinary.com/dcpuqbnrm/image/upload/v1754355820/jewgo/restaurants/homemade_by_vanessa/image_1.jpg","kosher_category":"Pareve","latitude":25.9439881,"longitude":-80.16352979999999,"name":"Homemade by vanessa","phone_number":"987 112 8552","price_range":"$$","state":"Fl","status":"active","updated_at":"Fri, 22 Aug 2025 03:09:30 GMT","website":"https://www.soheavenly.net/","zip_code":"33179"},{"address":"658","certifying_agency":"ORB","city":"Hallandale beach","created_at":"Sun, 03 Aug 2025 05:52:14 GMT","dist_m":null,"google_rating":4.5,"google_review_count":1214,"id":1527,"image_url":"https://res.cloudinary.com/dcpuqbnrm/image/upload/v1754350655/jewgo/restaurants/hummus_achla_hallandale/image_1.jpg","kosher_category":"Meat","latitude":25.9859712,"longitude":-80.1551704,"name":"Hummus achla hallandale","phone_number":"(954) 455-2118","price_range":"$$","state":"Fl","status":"active","updated_at":"Fri, 22 Aug 2025 03:09:30 GMT","website":"https://www.hummusachla.getsauce.com/?utm_source=GMB&utm_medium=Website%20button&utm_id=Hummus%20Achla%20Hallandale","zip_code":"33009"},{"address":"5800 Stirling Rd","certifying_agency":"ORB","city":"Hollywood","created_at":"Sun, 03 Aug 2025 05:52:23 GMT","dist_m":null,"google_rating":4.8,"google_review_count":1182,"id":1545,"image_url":"https://res.cloudinary.com/dcpuqbnrm/image/upload/v1754353981/jewgo/restaurants/hummus_vegas_grill_hollywood/image_1.jpg","kosher_category":"Meat","latitude":26.0463724,"longitude":-80.2053093,"name":"Hummus vegas & grill (hollywood)","phone_number":"(954) 981-7710","price_range":null,"state":"Fl","status":"active","updated_at":"Fri, 22 Aug 2025 03:09:30 GMT","website":"https://www.hummusvegasandgrill.getsauce.com/?utm_source=GMB&utm_medium=Website+Button&utm_id=hummusvegasandgrill","zip_code":"33021"},{"address":"18800 NE 29th Ave Suite 9","certifying_agency":"Kosher Miami","city":"Aventura","created_at":"Wed, 01 Jan 2025 12:00:00 GMT","dist_m":null,"google_rating":null,"google_review_count":null,"id":1822,"image_url":"https://res.cloudinary.com/dcpuqbnrm/image/upload/v1754361180/jewgo/restaurants/in_and_out_bagels/image_1.jpg","kosher_category":"Dairy","latitude":25.9497418,"longitude":-80.1431286,"name":"In and out bagels","phone_number":"305-974-0051","price_range":null,"state":"Fl","status":"active","updated_at":"Fri, 22 Aug 2025 03:09:30 GMT","website":null,"zip_code":"18800"},{"address":"4141 Nautilus Drive","certifying_agency":"Kosher Miami","city":"Miami beach","created_at":"Wed, 01 Jan 2025 12:00:00 GMT","dist_m":null,"google_rating":4.7,"google_review_count":854,"id":1823,"image_url":"https://res.cloudinary.com/dcpuqbnrm/image/upload/v1754355827/jewgo/restaurants/itz_good/image_1.jpg","kosher_category":"Pareve","latitude":25.813871,"longitude":-80.13529799999999,"name":"Itz good","phone_number":"(305) 937-1546","price_range":"$$","state":"Fl","status":"active","updated_at":"Fri, 22 Aug 2025 03:09:30 GMT","website":"https://etzelitzikmiami.com/","zip_code":"33140"},{"address":"761 NE 167th St","certifying_agency":"Kosher Miami","city":"North miami beach","created_at":"Wed, 01 Jan 2025 12:00:00 GMT","dist_m":null,"google_rating":4.5,"google_review_count":518,"id":1824,"image_url":"https://res.cloudinary.com/dcpuqbnrm/image/upload/v1754356047/jewgo/restaurants/jerusalem_pizza/image_1.jpg","kosher_category":"Dairy","latitude":25.9293528,"longitude":-80.185017,"name":"Jerusalem pizza","phone_number":"(305) 653-6662","price_range":"$","state":"Fl","status":"active","updated_at":"Fri, 22 Aug 2025 03:09:30 GMT","website":"https://www.orderjerusalempizza.com/","zip_code":"33162"},{"address":"3288 Stirling Rd","certifying_agency":"ORB","city":"Hollywood","created_at":"Sun, 03 Aug 2025 05:45:29 GMT","dist_m":null,"google_rating":4.5,"google_review_count":81,"id":1477,"image_url":"https://res.cloudinary.com/dcpuqbnrm/image/upload/v1754354365/jewgo/restaurants/joes_pizza/image_1.jpg","kosher_category":"Dairy","latitude":26.0473094,"longitude":-80.1759543,"name":"Joe's pizza","phone_number":"(754) 777-7742","price_range":"$$","state":"Fl","status":"active","updated_at":"Fri, 22 Aug 2025 03:09:30 GMT","website":"http://joespizzaflorida.com/","zip_code":"33021"},{"address":"2191 Powerline Rd","certifying_agency":"ORB","city":"Boca raton","created_at":"Sun, 03 Aug 2025 05:45:25 GMT","dist_m":null,"google_rating":4.1,"google_review_count":302,"id":1469,"image_url":"https://lh3.googleusercontent.com/place-photos/AJnk2cx4Z4Nl335R7edJ9VTqpDS5UQM3CPb3Ju76Iu3ZWQyb9rm-vbHY5lna_9V6bnHJw-T0f41vdHNlQgRc9fIhHUi88BG60DSI342ikoF11UReON5dudbV0oCcchiw8NeyZgFfTg2e6VbG5UuvsGs=s1600-w800","kosher_category":"Dairy","latitude":26.3472756,"longitude":-80.15548319999999,"name":"Jon's place","phone_number":"(561) 338-0008","price_range":"$$","state":"Fl","status":"active","updated_at":"Fri, 22 Aug 2025 03:09:30 GMT","website":"https://jonsplaceboca.com/","zip_code":"33434"}],"limit":100,"next_cursor":"eyJkaXN0X20iOiBudWxsLCAiaWQiOiAxNDY5LCAibGF0IjogbnVsbCwgImxuZyI6IG51bGwsICJhc19vZiI6ICIyMDI1LTA5LTA4VDA3OjA4OjIzLjYxMTI0MloifQ==","origin":null,"success":true}
